<?xml version="1.0" encoding="UTF-8"?>
<kml xmlns="http://www.opengis.net/kml/2.2">
<Document>
<Placemark>
  <name>VLG164B - 05:02:08:046</name>
  <Point>
    <coordinates>2.07322357364936,41.281705121782,0</coordinates>
  </Point>
</Placemark>
<Placemark>
  <name>VLG80UC - 05:05:24:148</name>
  <Point>
    <coordinates>2.06858733089334,41.2800426258212,0</coordinates>
  </Point>
</Placemark>
<Placemark>
  <name>VLG9BM - 05:07:12:148</name>
  <Point>
    <coordinates>2.07921645063222,41.2839260162858,0</coordinates>
  </Point>
</Placemark>
<Placemark>
  <name>VLG2RQ - 05:08:31:000</name>
  <Point>
    <coordinates>2.07086001204535,41.2811489612129,0</coordinates>
  </Point>
</Placemark>
<Placemark>
  <name>VLG3FM - 05:09:44:257</name>
  <Point>
    <coordinates>2.06799051526116,41.2799504538438,0</coordinates>
  </Point>
</Placemark>
<Placemark>
  <name>VLG6246 - 05:10:44:257</name>
  <Point>
    <coordinates>2.07352390927807,41.2819483450716,0</coordinates>
  </Point>
</Placemark>
<Placemark>
  <name>VLG89WB - 05:11:59:000</name>
  <Point>
    <coordinates>2.07181352768111,41.2812988461546,0</coordinates>
  </Point>
</Placemark>
<Placemark>
  <name>DLH62X - 05:13:24:335</name>
  <Point>
    <coordinates>2.07131573380796,41.2811366174991,0</coordinates>
  </Point>
</Placemark>
<Placemark>
  <name>VLG9FF - 05:14:56:398</name>
  <Point>
    <coordinates>2.06595659399282,41.2793767835044,0</coordinates>
  </Point>
</Placemark>
<Placemark>
  <name>MGO102 - 05:16:23:000</name>
  <Point>
    <coordinates>2.08050262310979,41.2844471420717,0</coordinates>
  </Point>
</Placemark>
<Placemark>
  <name>VLG19UW - 05:18:15:000</name>
  <Point>
    <coordinates>2.06884386636236,41.2803474439724,0</coordinates>
  </Point>
</Placemark>
<Placemark>
  <name>VLG57HR - 05:19:40:507</name>
  <Point>
    <coordinates>2.0684795765393,41.2803197610305,0</coordinates>
  </Point>
</Placemark>
<Placemark>
  <name>VLG7PX - 05:20:35:000</name>
  <Point>
    <coordinates>2.0784815844651,41.2839621036689,0</coordinates>
  </Point>
</Placemark>
<Placemark>
  <name>IBE30WP - 05:21:44:484</name>
  <Point>
    <coordinates>2.08075291037177,41.2844224289442,0</coordinates>
  </Point>
</Placemark>
<Placemark>
  <name>VLG7HQ - 05:23:12:562</name>
  <Point>
    <coordinates>2.07489214949287,41.282389442635,0</coordinates>
  </Point>
</Placemark>
<Placemark>
  <name>VLG744Q - 05:24:52:000</name>
  <Point>
    <coordinates>2.07074628583336,41.2811502735159,0</coordinates>
  </Point>
</Placemark>
<Placemark>
  <name>VLG31HY - 05:26:20:679</name>
  <Point>
    <coordinates>2.06819688499934,41.280191114133,0</coordinates>
  </Point>
</Placemark>
<Placemark>
  <name>VLG34HN - 05:27:36:640</name>
  <Point>
    <coordinates>2.07886598731932,41.283612088738,0</coordinates>
  </Point>
</Placemark>
<Placemark>
  <name>VLG4XA - 05:29:40:687</name>
  <Point>
    <coordinates>2.07985616894596,41.2841766362086,0</coordinates>
  </Point>
</Placemark>
<Placemark>
  <name>VLG6LQ - 05:31:08:781</name>
  <Point>
    <coordinates>2.07231044828601,41.2815715978562,0</coordinates>
  </Point>
</Placemark>
<Placemark>
  <name>VLG79LD - 05:33:00:820</name>
  <Point>
    <coordinates>2.0714897132465,41.2811127101201,0</coordinates>
  </Point>
</Placemark>
<Placemark>
  <name>VLG6PH - 05:34:20:867</name>
  <Point>
    <coordinates>2.06878091420177,41.28029316107,0</coordinates>
  </Point>
</Placemark>
<Placemark>
  <name>VLG3LK - 05:35:36:000</name>
  <Point>
    <coordinates>2.07145739650359,41.2811083661928,0</coordinates>
  </Point>
</Placemark>
<Placemark>
  <name>VLG1882 - 05:37:28:937</name>
  <Point>
    <coordinates>2.07043915367583,41.2810410962635,0</coordinates>
  </Point>
</Placemark>
<Placemark>
  <name>VLG21GB - 05:39:45:007</name>
  <Point>
    <coordinates>2.06781796978578,41.2798970175669,0</coordinates>
  </Point>
</Placemark>
<Placemark>
  <name>VLG404P - 05:40:40:960</name>
  <Point>
    <coordinates>2.08066114091806,41.2844795521615,0</coordinates>
  </Point>
</Placemark>
<Placemark>
  <name>VLG2LR - 05:42:09:070</name>
  <Point>
    <coordinates>2.06793857166322,41.2799983982903,0</coordinates>
  </Point>
</Placemark>
<Placemark>
  <name>VLG431R - 05:43:20:000</name>
  <Point>
    <coordinates>2.07298992618762,41.2816922997701,0</coordinates>
  </Point>
</Placemark>
<Placemark>
  <name>VLG6203 - 05:44:33:070</name>
  <Point>
    <coordinates>2.07788014745548,41.2832593211567,0</coordinates>
  </Point>
</Placemark>
<Placemark>
  <name>VLG4PC - 05:45:53:156</name>
  <Point>
    <coordinates>2.07037855070665,41.2808241151197,0</coordinates>
  </Point>
</Placemark>
<Placemark>
  <name>RYR4TJ - 05:47:33:203</name>
  <Point>
    <coordinates>2.06955469276401,41.2803448468491,0</coordinates>
  </Point>
</Placemark>
<Placemark>
  <name>VLG44WN - 05:49:01:210</name>
  <Point>
    <coordinates>2.07539856075609,41.2826407557791,0</coordinates>
  </Point>
</Placemark>
<Placemark>
  <name>EJU7105 - 05:50:33:273</name>
  <Point>
    <coordinates>2.07002544614353,41.2809119427786,0</coordinates>
  </Point>
</Placemark>
<Placemark>
  <name>VLG11SD - 05:51:53:304</name>
  <Point>
    <coordinates>2.07094422753703,41.2812268048062,0</coordinates>
  </Point>
</Placemark>
<Placemark>
  <name>VLG6330 - 05:53:09:328</name>
  <Point>
    <coordinates>2.07275238770781,41.2817950708344,0</coordinates>
  </Point>
</Placemark>
<Placemark>
  <name>VLG49HW - 05:54:25:367</name>
  <Point>
    <coordinates>2.07079745555306,41.280858394575,0</coordinates>
  </Point>
</Placemark>
<Placemark>
  <name>DLH05J - 05:56:41:429</name>
  <Point>
    <coordinates>2.06796271111848,41.2796845957668,0</coordinates>
  </Point>
</Placemark>
<Placemark>
  <name>EJU31EM - 05:58:08:000</name>
  <Point>
    <coordinates>2.06937662640085,41.2803621888012,0</coordinates>
  </Point>
</Placemark>
<Placemark>
  <name>VLG1ND - 05:59:29:492</name>
  <Point>
    <coordinates>2.07239702481112,41.2816956084102,0</coordinates>
  </Point>
</Placemark>
<Placemark>
  <name>BAW47C - 06:00:41:468</name>
  <Point>
    <coordinates>2.08041020083069,41.2844726325467,0</coordinates>
  </Point>
</Placemark>
<Placemark>
  <name>SWN5LC - 06:02:33:578</name>
  <Point>
    <coordinates>2.07117961076851,41.2815655209928,0</coordinates>
  </Point>
</Placemark>
<Placemark>
  <name>VLG2XZ - 06:03:45:000</name>
  <Point>
    <coordinates>2.07479313976425,41.282198051746,0</coordinates>
  </Point>
</Placemark>
<Placemark>
  <name>VLG1508 - 06:05:09:625</name>
  <Point>
    <coordinates>2.06975396602725,41.2798699094,0</coordinates>
  </Point>
</Placemark>
<Placemark>
  <name>VLG4SD - 06:06:37:000</name>
  <Point>
    <coordinates>2.07155594303338,41.2813266126032,0</coordinates>
  </Point>
</Placemark>
<Placemark>
  <name>EJU93PZ - 06:08:13:000</name>
  <Point>
    <coordinates>2.07147707993875,41.2811855834508,0</coordinates>
  </Point>
</Placemark>
<Placemark>
  <name>RYR29FB - 06:09:41:757</name>
  <Point>
    <coordinates>2.06813030213942,41.2796454388926,0</coordinates>
  </Point>
</Placemark>
<Placemark>
  <name>IBE30GT - 06:11:41:000</name>
  <Point>
    <coordinates>2.07449236105029,41.2824364782466,0</coordinates>
  </Point>
</Placemark>
<Placemark>
  <name>SWT8168 - 06:15:53:828</name>
  <Point>
    <coordinates>2.08250227796743,41.2848157092169,0</coordinates>
  </Point>
</Placemark>
<Placemark>
  <name>VLG8EF - 06:19:17:984</name>
  <Point>
    <coordinates>2.0721048069859,41.2811031842891,0</coordinates>
  </Point>
</Placemark>
<Placemark>
  <name>VLG7UN - 06:20:30:031</name>
  <Point>
    <coordinates>2.07042974536739,41.2809522842077,0</coordinates>
  </Point>
</Placemark>
<Placemark>
  <name>VLG7334 - 06:24:34:132</name>
  <Point>
    <coordinates>2.06886825347407,41.2801115601173,0</coordinates>
  </Point>
</Placemark>
<Placemark>
  <name>KLM18S - 06:29:54:281</name>
  <Point>
    <coordinates>2.06300207626649,41.278004945633,0</coordinates>
  </Point>
</Placemark>
<Placemark>
  <name>TLJ785K - 06:34:09:000</name>
  <Point>
    <coordinates>2.07718271011004,41.2830970661754,0</coordinates>
  </Point>
</Placemark>
<Placemark>
  <name>VLG42YP - 06:39:46:507</name>
  <Point>
    <coordinates>2.07277490206421,41.2818533218578,0</coordinates>
  </Point>
</Placemark>
<Placemark>
  <name>RYR2YB - 06:46:54:000</name>
  <Point>
    <coordinates>2.07934717525663,41.2837486663602,0</coordinates>
  </Point>
</Placemark>
<Placemark>
  <name>RYR4U - 06:48:18:000</name>
  <Point>
    <coordinates>2.07897587967886,41.2839408613336,0</coordinates>
  </Point>
</Placemark>
<Placemark>
  <name>THY5HX - 06:50:22:804</name>
  <Point>
    <coordinates>2.06365109000547,41.2781763342389,0</coordinates>
  </Point>
</Placemark>
<Placemark>
  <name>AEA29WG - 06:52:38:000</name>
  <Point>
    <coordinates>2.0681436487528,41.2798365150798,0</coordinates>
  </Point>
</Placemark>
<Placemark>
  <name>RYR7UY - 06:54:14:859</name>
  <Point>
    <coordinates>2.07415983361434,41.2820314777261,0</coordinates>
  </Point>
</Placemark>
<Placemark>
  <name>WMT9393 - 06:55:58:890</name>
  <Point>
    <coordinates>2.07653174424341,41.2828876007999,0</coordinates>
  </Point>
</Placemark>
<Placemark>
  <name>YUAPR - 07:08:15:250</name>
  <Point>
    <coordinates>2.06459096967342,41.2787280681795,0</coordinates>
  </Point>
</Placemark>
<Placemark>
  <name>VLG16BZ - 07:09:50:000</name>
  <Point>
    <coordinates>2.07205745527526,41.2815933628637,0</coordinates>
  </Point>
</Placemark>
<Placemark>
  <name>EWG84GX - 07:16:54:000</name>
  <Point>
    <coordinates>2.07240547859506,41.281582496445,0</coordinates>
  </Point>
</Placemark>
<Placemark>
  <name>VLG9YB - 07:18:19:484</name>
  <Point>
    <coordinates>2.06908886603013,41.2805603360422,0</coordinates>
  </Point>
</Placemark>
<Placemark>
  <name>VLG80BU - 07:20:07:523</name>
  <Point>
    <coordinates>2.07087257494327,41.2807830255411,0</coordinates>
  </Point>
</Placemark>
<Placemark>
  <name>VLG57MA - 07:21:47:570</name>
  <Point>
    <coordinates>2.06900710839555,41.2804852397746,0</coordinates>
  </Point>
</Placemark>
<Placemark>
  <name>RYR2FY - 07:23:23:625</name>
  <Point>
    <coordinates>2.06460470881959,41.2784385223214,0</coordinates>
  </Point>
</Placemark>
<Placemark>
  <name>VLG1ZN - 07:24:59:000</name>
  <Point>
    <coordinates>2.07389253002705,41.281861239667,0</coordinates>
  </Point>
</Placemark>
<Placemark>
  <name>VLG6BG - 07:26:23:664</name>
  <Point>
    <coordinates>2.07342484226122,41.281870941359,0</coordinates>
  </Point>
</Placemark>
<Placemark>
  <name>EJU3778 - 07:32:03:812</name>
  <Point>
    <coordinates>2.07061068392724,41.2806644034441,0</coordinates>
  </Point>
</Placemark>
<Placemark>
  <name>IBE30SW - 07:35:31:000</name>
  <Point>
    <coordinates>2.07633734603443,41.2830162701681,0</coordinates>
  </Point>
</Placemark>
<Placemark>
  <name>VLG9BP - 07:37:03:000</name>
  <Point>
    <coordinates>2.07031944830342,41.2809299848235,0</coordinates>
  </Point>
</Placemark>
<Placemark>
  <name>RYR9TK - 07:38:19:960</name>
  <Point>
    <coordinates>2.07426822276767,41.2822995995533,0</coordinates>
  </Point>
</Placemark>
<Placemark>
  <name>EWG521 - 07:39:47:000</name>
  <Point>
    <coordinates>2.07277964040541,41.2815472893611,0</coordinates>
  </Point>
</Placemark>
<Placemark>
  <name>QTR94P - 07:41:20:039</name>
  <Point>
    <coordinates>2.07179407416914,41.2812007968432,0</coordinates>
  </Point>
</Placemark>
<Placemark>
  <name>VLG2FM - 07:43:59:000</name>
  <Point>
    <coordinates>2.07167519590788,41.2814099133017,0</coordinates>
  </Point>
</Placemark>
<Placemark>
  <name>IBE30FP - 07:46:52:140</name>
  <Point>
    <coordinates>2.07768882964777,41.2834415560057,0</coordinates>
  </Point>
</Placemark>
<Placemark>
  <name>RYR73DZ - 07:48:16:250</name>
  <Point>
    <coordinates>2.06607377125361,41.2789747150601,0</coordinates>
  </Point>
</Placemark>
<Placemark>
  <name>VLG93NH - 07:52:00:320</name>
  <Point>
    <coordinates>2.0681228306667,41.2799838778646,0</coordinates>
  </Point>
</Placemark>
<Placemark>
  <name>EWG1BL - 07:59:24:460</name>
  <Point>
    <coordinates>2.07547966685267,41.2828168716218,0</coordinates>
  </Point>
</Placemark>
<Placemark>
  <name>VOE23TA - 08:00:40:000</name>
  <Point>
    <coordinates>2.07287605894585,41.2818531691966,0</coordinates>
  </Point>
</Placemark>
<Placemark>
  <name>TRA3A - 08:02:08:000</name>
  <Point>
    <coordinates>2.0647877328536,41.2788629090395,0</coordinates>
  </Point>
</Placemark>
<Placemark>
  <name>VLG836M - 08:04:08:601</name>
  <Point>
    <coordinates>2.06993581545015,41.2808352457455,0</coordinates>
  </Point>
</Placemark>
<Placemark>
  <name>AAL743 - 08:05:32:000</name>
  <Point>
    <coordinates>2.06726509627929,41.279814477937,0</coordinates>
  </Point>
</Placemark>
<Placemark>
  <name>AFR67FJ - 08:08:00:656</name>
  <Point>
    <coordinates>2.07637930720597,41.282951794954,0</coordinates>
  </Point>
</Placemark>
<Placemark>
  <name>SWR71LU - 08:09:44:750</name>
  <Point>
    <coordinates>2.06602909338533,41.279470442082,0</coordinates>
  </Point>
</Placemark>
<Placemark>
  <name>AUA39H - 08:11:12:718</name>
  <Point>
    <coordinates>2.07852134436579,41.2838106524711,0</coordinates>
  </Point>
</Placemark>
<Placemark>
  <name>N501MG - 08:14:24:812</name>
  <Point>
    <coordinates>2.07321534845489,41.2810934200754,0</coordinates>
  </Point>
</Placemark>
<Placemark>
  <name>IBE30KE - 08:15:56:000</name>
  <Point>
    <coordinates>2.07565212044532,41.2824467320694,0</coordinates>
  </Point>
</Placemark>
<Placemark>
  <name>VLG9ZT - 08:17:36:859</name>
  <Point>
    <coordinates>2.08007604340607,41.2843322256476,0</coordinates>
  </Point>
</Placemark>
<Placemark>
  <name>RYR87QD - 08:19:16:976</name>
  <Point>
    <coordinates>2.06576224990824,41.2794545205915,0</coordinates>
  </Point>
</Placemark>
<Placemark>
  <name>BAW473 - 08:20:16:000</name>
  <Point>
    <coordinates>2.07833828112078,41.2837857352364,0</coordinates>
  </Point>
</Placemark>
<Placemark>
  <name>ASL79V - 08:22:00:000</name>
  <Point>
    <coordinates>2.0709074079046,41.2810985680821,0</coordinates>
  </Point>
</Placemark>
<Placemark>
  <name>FIN07RT - 08:23:32:000</name>
  <Point>
    <coordinates>2.0779258396354,41.2836396231612,0</coordinates>
  </Point>
</Placemark>
<Placemark>
  <name>RUK69FL - 08:29:36:000</name>
  <Point>
    <coordinates>2.06746870122146,41.2799490379295,0</coordinates>
  </Point>
</Placemark>
<Placemark>
  <name>VLG6LR - 08:30:49:218</name>
  <Point>
    <coordinates>2.07144451536676,41.2812128294028,0</coordinates>
  </Point>
</Placemark>
<Placemark>
  <name>WMT79 - 08:39:40:000</name>
  <Point>
    <coordinates>2.07490423757385,41.2825663665497,0</coordinates>
  </Point>
</Placemark>
<Placemark>
  <name>EZY16QD - 08:40:57:421</name>
  <Point>
    <coordinates>2.07576171884522,41.2827483802764,0</coordinates>
  </Point>
</Placemark>
<Placemark>
  <name>VLG2KX - 08:42:17:460</name>
  <Point>
    <coordinates>2.0738205273234,41.2819977386959,0</coordinates>
  </Point>
</Placemark>
<Placemark>
  <name>RYR9ZC - 08:44:01:000</name>
  <Point>
    <coordinates>2.06727872570002,41.2798185562402,0</coordinates>
  </Point>
</Placemark>
<Placemark>
  <name>RYR17TT - 08:45:21:554</name>
  <Point>
    <coordinates>2.06979142499278,41.2807120075625,0</coordinates>
  </Point>
</Placemark>
<Placemark>
  <name>IBE30HR - 08:46:37:554</name>
  <Point>
    <coordinates>2.07395922212564,41.2821233830592,0</coordinates>
  </Point>
</Placemark>
<Placemark>
  <name>RYR49YA - 08:48:01:617</name>
  <Point>
    <coordinates>2.06937017604033,41.2805477392442,0</coordinates>
  </Point>
</Placemark>
<Placemark>
  <name>VLG7SV - 08:49:21:000</name>
  <Point>
    <coordinates>2.07071258516853,41.2808679898626,0</coordinates>
  </Point>
</Placemark>
<Placemark>
  <name>EJU43XT - 08:51:09:664</name>
  <Point>
    <coordinates>2.0753813198783,41.2826791346905,0</coordinates>
  </Point>
</Placemark>
<Placemark>
  <name>VLG6TM - 08:52:41:710</name>
  <Point>
    <coordinates>2.0712972687692,41.2811771974137,0</coordinates>
  </Point>
</Placemark>
<Placemark>
  <name>TRA35B - 08:53:49:734</name>
  <Point>
    <coordinates>2.0702633066515,41.2810664416012,0</coordinates>
  </Point>
</Placemark>
<Placemark>
  <name>ELY394 - 08:54:53:757</name>
  <Point>
    <coordinates>2.07041476243204,41.2807722851591,0</coordinates>
  </Point>
</Placemark>
<Placemark>
  <name>WZZ4 - 08:56:25:757</name>
  <Point>
    <coordinates>2.07663484241414,41.2829472423808,0</coordinates>
  </Point>
</Placemark>
<Placemark>
  <name>EZY51EZ - 09:01:25:000</name>
  <Point>
    <coordinates>2.07018149260114,41.2810486832868,0</coordinates>
  </Point>
</Placemark>
<Placemark>
  <name>RYR33SC - 09:03:53:960</name>
  <Point>
    <coordinates>2.06948973377619,41.2805976742315,0</coordinates>
  </Point>
</Placemark>
<Placemark>
  <name>VLG15H - 09:05:57:992</name>
  <Point>
    <coordinates>2.07242165499004,41.2817407925037,0</coordinates>
  </Point>
</Placemark>
<Placemark>
  <name>N99ZM - 09:08:54:070</name>
  <Point>
    <coordinates>2.06771099408055,41.2796845656547,0</coordinates>
  </Point>
</Placemark>
<Placemark>
  <name>UAE255 - 09:10:54:117</name>
  <Point>
    <coordinates>2.06753798641276,41.2800393541734,0</coordinates>
  </Point>
</Placemark>
<Placemark>
  <name>N158QS - 09:13:37:000</name>
  <Point>
    <coordinates>2.06357146916137,41.2787420145564,0</coordinates>
  </Point>
</Placemark>
<Placemark>
  <name>ETD35Q - 09:15:57:000</name>
  <Point>
    <coordinates>2.07470547576042,41.2825356549732,0</coordinates>
  </Point>
</Placemark>
<Placemark>
  <name>MAC374R - 09:18:30:242</name>
  <Point>
    <coordinates>2.07435757298801,41.2821015821798,0</coordinates>
  </Point>
</Placemark>
<Placemark>
  <name>RYR67DP - 09:20:17:000</name>
  <Point>
    <coordinates>2.06969670247185,41.2807652377757,0</coordinates>
  </Point>
</Placemark>
<Placemark>
  <name>AHO647A - 09:21:49:000</name>
  <Point>
    <coordinates>2.07020359980427,41.281234660399,0</coordinates>
  </Point>
</Placemark>
<Placemark>
  <name>EZY83DL - 09:25:38:382</name>
  <Point>
    <coordinates>2.07577704160581,41.2827848998292,0</coordinates>
  </Point>
</Placemark>
<Placemark>
  <name>KLM86N - 09:27:21:000</name>
  <Point>
    <coordinates>2.06448936350233,41.2791376390401,0</coordinates>
  </Point>
</Placemark>
<Placemark>
  <name>VLG7PC - 09:28:38:460</name>
  <Point>
    <coordinates>2.07272529377542,41.2817381409181,0</coordinates>
  </Point>
</Placemark>
<Placemark>
  <name>VLG4YH - 09:30:10:460</name>
  <Point>
    <coordinates>2.07835396346021,41.2837532741151,0</coordinates>
  </Point>
</Placemark>
<Placemark>
  <name>CSDPV - 09:32:42:554</name>
  <Point>
    <coordinates>2.06981197199971,41.2803380665009,0</coordinates>
  </Point>
</Placemark>
<Placemark>
  <name>EIN5LG - 09:37:42:000</name>
  <Point>
    <coordinates>2.0747479420535,41.2825006566951,0</coordinates>
  </Point>
</Placemark>
<Placemark>
  <name>RYR1DH - 09:39:22:710</name>
  <Point>
    <coordinates>2.06536405965063,41.278880754362,0</coordinates>
  </Point>
</Placemark>
<Placemark>
  <name>AEE711 - 09:40:58:000</name>
  <Point>
    <coordinates>2.07618091002278,41.2829531553365,0</coordinates>
  </Point>
</Placemark>
<Placemark>
  <name>WZZ46 - 09:42:26:726</name>
  <Point>
    <coordinates>2.07577175421107,41.2830367781269,0</coordinates>
  </Point>
</Placemark>
<Placemark>
  <name>RYR930U - 09:44:14:789</name>
  <Point>
    <coordinates>2.06929420972961,41.2803333374661,0</coordinates>
  </Point>
</Placemark>
<Placemark>
  <name>VLG1ZY - 09:45:38:812</name>
  <Point>
    <coordinates>2.07015970821974,41.2808144029221,0</coordinates>
  </Point>
</Placemark>
<Placemark>
  <name>VLG178R - 09:46:46:781</name>
  <Point>
    <coordinates>2.07952415392098,41.2841738257566,0</coordinates>
  </Point>
</Placemark>
<Placemark>
  <name>RYR88AD - 09:48:14:882</name>
  <Point>
    <coordinates>2.06938834505513,41.2806442725453,0</coordinates>
  </Point>
</Placemark>
<Placemark>
  <name>TAP1035 - 09:49:30:000</name>
  <Point>
    <coordinates>2.07639666747231,41.2830638737438,0</coordinates>
  </Point>
</Placemark>
<Placemark>
  <name>VLG673Q - 09:50:46:890</name>
  <Point>
    <coordinates>2.07567155133791,41.2828037557058,0</coordinates>
  </Point>
</Placemark>
<Placemark>
  <name>VLG10DH - 09:52:10:929</name>
  <Point>
    <coordinates>2.07222607320278,41.2816424883974,0</coordinates>
  </Point>
</Placemark>
<Placemark>
  <name>VLG6009 - 09:53:46:984</name>
  <Point>
    <coordinates>2.06763323710544,41.2798141147894,0</coordinates>
  </Point>
</Placemark>
<Placemark>
  <name>ZSABB - 09:54:58:921</name>
  <Point>
    <coordinates>2.08161279981919,41.2848800077945,0</coordinates>
  </Point>
</Placemark>
<Placemark>
  <name>VLG9AP - 09:56:47:007</name>
  <Point>
    <coordinates>2.07375134102483,41.2818182104378,0</coordinates>
  </Point>
</Placemark>
<Placemark>
  <name>ITY077 - 09:58:14:000</name>
  <Point>
    <coordinates>2.07226196476155,41.2815048283828,0</coordinates>
  </Point>
</Placemark>
<Placemark>
  <name>VLG9CA - 09:59:58:000</name>
  <Point>
    <coordinates>2.06995677598071,41.2808480136121,0</coordinates>
  </Point>
</Placemark>
<Placemark>
  <name>VLG17FD - 10:01:42:000</name>
  <Point>
    <coordinates>2.0713988910779,41.2805929238395,0</coordinates>
  </Point>
</Placemark>
<Placemark>
  <name>AEA6037 - 10:03:14:000</name>
  <Point>
    <coordinates>2.06831854489834,41.2803993853114,0</coordinates>
  </Point>
</Placemark>
<Placemark>
  <name>BAW483B - 10:04:43:117</name>
  <Point>
    <coordinates>2.07949759220643,41.284194642909,0</coordinates>
  </Point>
</Placemark>
<Placemark>
  <name>DLH13K - 10:06:11:171</name>
  <Point>
    <coordinates>2.07574780887974,41.2829993956857,0</coordinates>
  </Point>
</Placemark>
<Placemark>
  <name>VLG3QT - 10:07:43:242</name>
  <Point>
    <coordinates>2.0687277238687,41.2802966557289,0</coordinates>
  </Point>
</Placemark>
<Placemark>
  <name>AEA7706 - 10:09:11:234</name>
  <Point>
    <coordinates>2.0730890591544,41.2817301707384,0</coordinates>
  </Point>
</Placemark>
<Placemark>
  <name>GES441S - 10:12:46:000</name>
  <Point>
    <coordinates>2.07894204853406,41.2834361900422,0</coordinates>
  </Point>
</Placemark>
<Placemark>
  <name>VLG8PX - 10:14:39:351</name>
  <Point>
    <coordinates>2.06975250547935,41.2807843494366,0</coordinates>
  </Point>
</Placemark>
<Placemark>
  <name>VLG36BR - 10:18:11:351</name>
  <Point>
    <coordinates>2.07934207271091,41.2840817007548,0</coordinates>
  </Point>
</Placemark>
<Placemark>
  <name>EJU16XM - 10:20:23:406</name>
  <Point>
    <coordinates>2.07628755179994,41.2829429776864,0</coordinates>
  </Point>
</Placemark>
<Placemark>
  <name>VLG9RM - 10:22:10:000</name>
  <Point>
    <coordinates>2.07239169329036,41.2819053872136,0</coordinates>
  </Point>
</Placemark>
<Placemark>
  <name>RYR308X - 10:23:27:492</name>
  <Point>
    <coordinates>2.07107221186412,41.2813086167185,0</coordinates>
  </Point>
</Placemark>
<Placemark>
  <name>UAL121 - 10:24:47:437</name>
  <Point>
    <coordinates>2.08160932033602,41.284913408394,0</coordinates>
  </Point>
</Placemark>
<Placemark>
  <name>THY4AP - 10:26:35:523</name>
  <Point>
    <coordinates>2.07442678942502,41.2824402177037,0</coordinates>
  </Point>
</Placemark>
<Placemark>
  <name>VLG4HF - 10:29:19:585</name>
  <Point>
    <coordinates>2.07168365046079,41.2814277803382,0</coordinates>
  </Point>
</Placemark>
<Placemark>
  <name>N904TS - 10:30:39:562</name>
  <Point>
    <coordinates>2.07870892828823,41.2838756699348,0</coordinates>
  </Point>
</Placemark>
<Placemark>
  <name>VLG7EW - 10:32:15:000</name>
  <Point>
    <coordinates>2.07781383988818,41.2835571079256,0</coordinates>
  </Point>
</Placemark>
<Placemark>
  <name>VLG8KR - 10:33:59:601</name>
  <Point>
    <coordinates>2.0803892387258,41.2844660650175,0</coordinates>
  </Point>
</Placemark>
<Placemark>
  <name>VLG6QC - 10:35:47:000</name>
  <Point>
    <coordinates>2.07998162301034,41.284282401476,0</coordinates>
  </Point>
</Placemark>
<Placemark>
  <name>RYR1UC - 10:37:15:726</name>
  <Point>
    <coordinates>2.06863876151277,41.2805266127,0</coordinates>
  </Point>
</Placemark>
<Placemark>
  <name>RYR47NG - 10:38:47:000</name>
  <Point>
    <coordinates>2.06865456765204,41.2803074633382,0</coordinates>
  </Point>
</Placemark>
<Placemark>
  <name>VLG3EN - 10:39:59:000</name>
  <Point>
    <coordinates>2.07290582664925,41.2818394905571,0</coordinates>
  </Point>
</Placemark>
<Placemark>
  <name>VLG13HE - 10:41:19:757</name>
  <Point>
    <coordinates>2.0740404603247,41.282246113552,0</coordinates>
  </Point>
</Placemark>
<Placemark>
  <name>VLG5AN - 10:42:35:765</name>
  <Point>
    <coordinates>2.07578531178783,41.2825391135356,0</coordinates>
  </Point>
</Placemark>
<Placemark>
  <name>VLG1512 - 10:44:11:804</name>
  <Point>
    <coordinates>2.07374930086384,41.2823429635127,0</coordinates>
  </Point>
</Placemark>
<Placemark>
  <name>NSZ365L - 10:46:11:835</name>
  <Point>
    <coordinates>2.07307837556103,41.2817598804466,0</coordinates>
  </Point>
</Placemark>
<Placemark>
  <name>VLG6NJ - 10:49:59:906</name>
  <Point>
    <coordinates>2.07128921438472,41.2813268073229,0</coordinates>
  </Point>
</Placemark>
<Placemark>
  <name>VLG4WJ - 11:02:56:062</name>
  <Point>
    <coordinates>2.0778145222523,41.2834729247417,0</coordinates>
  </Point>
</Placemark>
<Placemark>
  <name>VLG202P - 10:55:31:906</name>
  <Point>
    <coordinates>2.08330741599724,41.2853321828526,0</coordinates>
  </Point>
</Placemark>
<Placemark>
  <name>AAL67 - 10:58:27:000</name>
  <Point>
    <coordinates>2.07664789645136,41.2830507202335,0</coordinates>
  </Point>
</Placemark>
<Placemark>
  <name>IBE30HP - 11:01:00:046</name>
  <Point>
    <coordinates>2.07482690081078,41.2823982842369,0</coordinates>
  </Point>
</Placemark>
<Placemark>
  <name>VLG64LZ - 11:05:27:000</name>
  <Point>
    <coordinates>2.07058310693124,41.2808905117904,0</coordinates>
  </Point>
</Placemark>
<Placemark>
  <name>VLG48EZ - 11:06:56:132</name>
  <Point>
    <coordinates>2.07434836269646,41.2824981883999,0</coordinates>
  </Point>
</Placemark>
<Placemark>
  <name>VLG3YG - 11:08:16:140</name>
  <Point>
    <coordinates>2.0757709997988,41.282697528626,0</coordinates>
  </Point>
</Placemark>
<Placemark>
  <name>VLG5SH - 11:12:08:195</name>
  <Point>
    <coordinates>2.07556918471512,41.2827994554422,0</coordinates>
  </Point>
</Placemark>
<Placemark>
  <name>NOZ41B - 11:13:36:257</name>
  <Point>
    <coordinates>2.06465400650469,41.2785711370937,0</coordinates>
  </Point>
</Placemark>
<Placemark>
  <name>DLH27W - 11:18:39:000</name>
  <Point>
    <coordinates>2.07632787214064,41.2830267832325,0</coordinates>
  </Point>
</Placemark>
<Placemark>
  <name>VLG63KY - 11:20:00:281</name>
  <Point>
    <coordinates>2.07582777467225,41.2826334502528,0</coordinates>
  </Point>
</Placemark>
<Placemark>
  <name>VLG28VR - 11:21:19:000</name>
  <Point>
    <coordinates>2.07746574579623,41.2833675681868,0</coordinates>
  </Point>
</Placemark>
<Placemark>
  <name>AHO859Y - 11:23:21:000</name>
  <Point>
    <coordinates>2.07790938782541,41.2832326593442,0</coordinates>
  </Point>
</Placemark>
<Placemark>
  <name>BAW485 - 11:24:52:312</name>
  <Point>
    <coordinates>2.08099468657304,41.2846983277246,0</coordinates>
  </Point>
</Placemark>
<Placemark>
  <name>VLG2MJ - 11:26:23:000</name>
  <Point>
    <coordinates>2.07248587548998,41.281906646811,0</coordinates>
  </Point>
</Placemark>
<Placemark>
  <name>EJU64CT - 11:27:40:421</name>
  <Point>
    <coordinates>2.07003571091282,41.2810348938038,0</coordinates>
  </Point>
</Placemark>
<Placemark>
  <name>RYR75HD - 11:29:16:429</name>
  <Point>
    <coordinates>2.07073972158227,41.2809354882283,0</coordinates>
  </Point>
</Placemark>
<Placemark>
  <name>EJU48RE - 11:35:32:484</name>
  <Point>
    <coordinates>2.07772525575185,41.2834281741973,0</coordinates>
  </Point>
</Placemark>
<Placemark>
  <name>AHY046 - 11:36:44:468</name>
  <Point>
    <coordinates>2.07955018011919,41.2841793444972,0</coordinates>
  </Point>
</Placemark>
<Placemark>
  <name>RYR6UL - 11:38:28:546</name>
  <Point>
    <coordinates>2.06893006480636,41.2804830688783,0</coordinates>
  </Point>
</Placemark>
<Placemark>
  <name>RYR6376 - 11:39:44:554</name>
  <Point>
    <coordinates>2.07036665800239,41.2808552689318,0</coordinates>
  </Point>
</Placemark>
<Placemark>
  <name>AFR94BQ - 11:41:04:000</name>
  <Point>
    <coordinates>2.07673783036147,41.283362054774,0</coordinates>
  </Point>
</Placemark>
<Placemark>
  <name>VLG3VF - 11:42:24:554</name>
  <Point>
    <coordinates>2.07485154582079,41.2824256298944,0</coordinates>
  </Point>
</Placemark>
<Placemark>
  <name>RYR426G - 11:43:48:000</name>
  <Point>
    <coordinates>2.07459702441827,41.2822402612963,0</coordinates>
  </Point>
</Placemark>
<Placemark>
  <name>RYR1XN - 11:47:20:625</name>
  <Point>
    <coordinates>2.07376229795783,41.2821785703248,0</coordinates>
  </Point>
</Placemark>
<Placemark>
  <name>T7MPS - 11:49:48:617</name>
  <Point>
    <coordinates>2.07926826133144,41.2842113096985,0</coordinates>
  </Point>
</Placemark>
<Placemark>
  <name>AAL113 - 11:51:28:000</name>
  <Point>
    <coordinates>2.07317236415888,41.2820844455676,0</coordinates>
  </Point>
</Placemark>
<Placemark>
  <name>IBE30SY - 11:56:56:710</name>
  <Point>
    <coordinates>2.07577405379616,41.2827472738303,0</coordinates>
  </Point>
</Placemark>
<Placemark>
  <name>VLG12ET - 11:58:56:000</name>
  <Point>
    <coordinates>2.07563091054816,41.2827668839582,0</coordinates>
  </Point>
</Placemark>
<Placemark>
  <name>VLG3BV - 12:00:56:765</name>
  <Point>
    <coordinates>2.07384398592716,41.2821312413335,0</coordinates>
  </Point>
</Placemark>
<Placemark>
  <name>DLH73N - 12:02:48:742</name>
  <Point>
    <coordinates>2.07902132261867,41.2836430254523,0</coordinates>
  </Point>
</Placemark>
<Placemark>
  <name>VLG86KT - 12:05:52:000</name>
  <Point>
    <coordinates>2.07511139852814,41.2827082680542,0</coordinates>
  </Point>
</Placemark>
<Placemark>
  <name>THY7DT - 12:07:48:000</name>
  <Point>
    <coordinates>2.08025720237284,41.2842619987082,0</coordinates>
  </Point>
</Placemark>
<Placemark>
  <name>VJT547 - 12:09:52:843</name>
  <Point>
    <coordinates>2.07558518766165,41.2828595911208,0</coordinates>
  </Point>
</Placemark>
<Placemark>
  <name>NJE930P - 12:12:04:875</name>
  <Point>
    <coordinates>2.07503948280376,41.2823507480237,0</coordinates>
  </Point>
</Placemark>
<Placemark>
  <name>VLG7PG - 12:13:52:890</name>
  <Point>
    <coordinates>2.0758097437816,41.2825177403845,0</coordinates>
  </Point>
</Placemark>
<Placemark>
  <name>AVA019 - 12:20:28:960</name>
  <Point>
    <coordinates>2.07186256244913,41.2813691310718,0</coordinates>
  </Point>
</Placemark>
<Placemark>
  <name>DAL169 - 12:21:52:953</name>
  <Point>
    <coordinates>2.0753354366906,41.2825982859476,0</coordinates>
  </Point>
</Placemark>
<Placemark>
  <name>EJU4214 - 12:24:16:953</name>
  <Point>
    <coordinates>2.07891696181427,41.2839241837754,0</coordinates>
  </Point>
</Placemark>
<Placemark>
  <name>VLG76QJ - 12:25:56:984</name>
  <Point>
    <coordinates>2.07666026414706,41.2831304343446,0</coordinates>
  </Point>
</Placemark>
<Placemark>
  <name>RYR3YF - 12:27:29:023</name>
  <Point>
    <coordinates>2.07149132054653,41.2813643650014,0</coordinates>
  </Point>
</Placemark>
<Placemark>
  <name>VLG2912 - 12:28:33:007</name>
  <Point>
    <coordinates>2.07720668761797,41.2832054613536,0</coordinates>
  </Point>
</Placemark>
<Placemark>
  <name>GES481Y - 12:30:24:984</name>
  <Point>
    <coordinates>2.08151134749043,41.2847032187445,0</coordinates>
  </Point>
</Placemark>
<Placemark>
  <name>DLH02T - 12:32:01:062</name>
  <Point>
    <coordinates>2.07130926701901,41.2807794189403,0</coordinates>
  </Point>
</Placemark>
<Placemark>
  <name>VLG91PK - 12:35:21:078</name>
  <Point>
    <coordinates>2.07562723905649,41.2828105435945,0</coordinates>
  </Point>
</Placemark>
<Placemark>
  <name>EJU64NE - 12:39:05:125</name>
  <Point>
    <coordinates>2.07128297982039,41.2812044292431,0</coordinates>
  </Point>
</Placemark>
<Placemark>
  <name>EWG3ZR - 12:41:16:000</name>
  <Point>
    <coordinates>2.0814037351514,41.2848679035548,0</coordinates>
  </Point>
</Placemark>
<Placemark>
  <name>IBE30DP - 12:42:57:140</name>
  <Point>
    <coordinates>2.07477802002917,41.2822391022455,0</coordinates>
  </Point>
</Placemark>
<Placemark>
  <name>IBE2621 - 12:44:20:000</name>
  <Point>
    <coordinates>2.07935882666057,41.2840185938402,0</coordinates>
  </Point>
</Placemark>
<Placemark>
  <name>VLG8560 - 12:48:09:195</name>
  <Point>
    <coordinates>2.07302459244376,41.2818668521007,0</coordinates>
  </Point>
</Placemark>
<Placemark>
  <name>PGT16WE - 12:55:09:226</name>
  <Point>
    <coordinates>2.0763217885157,41.2829950913913,0</coordinates>
  </Point>
</Placemark>
<Placemark>
  <name>RYR43VV - 12:56:41:296</name>
  <Point>
    <coordinates>2.06934862491759,41.2805252771349,0</coordinates>
  </Point>
</Placemark>
<Placemark>
  <name>VLG1VH - 12:57:49:257</name>
  <Point>
    <coordinates>2.07512266072438,41.2827011391723,0</coordinates>
  </Point>
</Placemark>
<Placemark>
  <name>VLG812Z - 13:00:33:265</name>
  <Point>
    <coordinates>2.07612087787727,41.2829334583448,0</coordinates>
  </Point>
</Placemark>
<Placemark>
  <name>LGL92PE - 13:05:21:304</name>
  <Point>
    <coordinates>2.07735838881932,41.2832916794866,0</coordinates>
  </Point>
</Placemark>
<Placemark>
  <name>VLG22GA - 13:08:01:351</name>
  <Point>
    <coordinates>2.07267712264827,41.2817758411786,0</coordinates>
  </Point>
</Placemark>
<Placemark>
  <name>RYR6MD - 13:10:01:367</name>
  <Point>
    <coordinates>2.07189251280811,41.281534107438,0</coordinates>
  </Point>
</Placemark>
<Placemark>
  <name>RYR46QL - 13:18:20:000</name>
  <Point>
    <coordinates>2.08352984647125,41.2855895494697,0</coordinates>
  </Point>
</Placemark>
<Placemark>
  <name>TAP47MM - 13:20:01:414</name>
  <Point>
    <coordinates>2.07564302606093,41.2824839882476,0</coordinates>
  </Point>
</Placemark>
<Placemark>
  <name>SWR95B - 13:21:45:468</name>
  <Point>
    <coordinates>2.0704002908432,41.2810973501575,0</coordinates>
  </Point>
</Placemark>
<Placemark>
  <name>BAW475 - 13:25:32:000</name>
  <Point>
    <coordinates>2.07653440365177,41.282803944367,0</coordinates>
  </Point>
</Placemark>
<Placemark>
  <name>VLG5ET - 13:27:41:476</name>
  <Point>
    <coordinates>2.07747657633761,41.2834251033812,0</coordinates>
  </Point>
</Placemark>
<Placemark>
  <name>LOT3FB - 13:29:49:500</name>
  <Point>
    <coordinates>2.07362887740646,41.2821451748595,0</coordinates>
  </Point>
</Placemark>
<Placemark>
  <name>VLG4UE - 13:31:13:484</name>
  <Point>
    <coordinates>2.0766877702482,41.2828362153973,0</coordinates>
  </Point>
</Placemark>
<Placemark>
  <name>VLG7LD - 13:32:45:500</name>
  <Point>
    <coordinates>2.07693516640135,41.2831377093791,0</coordinates>
  </Point>
</Placemark>
<Placemark>
  <name>TSC261 - 13:33:57:507</name>
  <Point>
    <coordinates>2.07695537982086,41.2829267866802,0</coordinates>
  </Point>
</Placemark>
<Placemark>
  <name>CFE3290 - 13:35:09:523</name>
  <Point>
    <coordinates>2.07516262054774,41.2824937131505,0</coordinates>
  </Point>
</Placemark>
<Placemark>
  <name>VLG6MY - 13:41:53:570</name>
  <Point>
    <coordinates>2.073493333635,41.2814707643963,0</coordinates>
  </Point>
</Placemark>
<Placemark>
  <name>AFR31DH - 13:43:17:000</name>
  <Point>
    <coordinates>2.08102367944781,41.284693529773,0</coordinates>
  </Point>
</Placemark>
<Placemark>
  <name>UAE256 - 13:44:45:617</name>
  <Point>
    <coordinates>2.06963599893247,41.2805364086379,0</coordinates>
  </Point>
</Placemark>
<Placemark>
  <name>S5BBG - 13:47:45:617</name>
  <Point>
    <coordinates>2.0740383369718,41.2821448069503,0</coordinates>
  </Point>
</Placemark>
<Placemark>
  <name>BEL74C - 13:48:57:578</name>
  <Point>
    <coordinates>2.08037143994316,41.2844788850786,0</coordinates>
  </Point>
</Placemark>
<Placemark>
  <name>VLG6UR - 13:51:05:632</name>
  <Point>
    <coordinates>2.07543310276453,41.2825801208665,0</coordinates>
  </Point>
</Placemark>
<Placemark>
  <name>VLG6CK - 13:52:17:656</name>
  <Point>
    <coordinates>2.07418133754826,41.2822534896714,0</coordinates>
  </Point>
</Placemark>
<Placemark>
  <name>VLG4ML - 13:53:57:656</name>
  <Point>
    <coordinates>2.07338460481811,41.2819642815894,0</coordinates>
  </Point>
</Placemark>
<Placemark>
  <name>VLG2GR - 13:55:49:640</name>
  <Point>
    <coordinates>2.07834928614653,41.283485640045,0</coordinates>
  </Point>
</Placemark>
<Placemark>
  <name>ICE597 - 13:57:29:000</name>
  <Point>
    <coordinates>2.07131265147375,41.281228932374,0</coordinates>
  </Point>
</Placemark>
<Placemark>
  <name>RYR9YQ - 14:01:33:734</name>
  <Point>
    <coordinates>2.06745406081671,41.2798778705881,0</coordinates>
  </Point>
</Placemark>
<Placemark>
  <name>RYR7UL - 14:03:09:742</name>
  <Point>
    <coordinates>2.06815599257368,41.279888873136,0</coordinates>
  </Point>
</Placemark>
<Placemark>
  <name>WZZ11LU - 14:06:53:718</name>
  <Point>
    <coordinates>2.07673594481037,41.2831127859333,0</coordinates>
  </Point>
</Placemark>
<Placemark>
  <name>VLG7886 - 14:09:25:781</name>
  <Point>
    <coordinates>2.07229822186558,41.2817825153798,0</coordinates>
  </Point>
</Placemark>
<Placemark>
  <name>VLG71QB - 14:10:37:734</name>
  <Point>
    <coordinates>2.07670124063384,41.2831207513495,0</coordinates>
  </Point>
</Placemark>
<Placemark>
  <name>RYR5TB - 14:19:05:812</name>
  <Point>
    <coordinates>2.0723692757641,41.2817321512463,0</coordinates>
  </Point>
</Placemark>
<Placemark>
  <name>DLH33A - 14:20:41:820</name>
  <Point>
    <coordinates>2.07303440208829,41.281891958255,0</coordinates>
  </Point>
</Placemark>
<Placemark>
  <name>ORO1021 - 14:47:45:882</name>
  <Point>
    <coordinates>2.08156933872516,41.2839131135333,0</coordinates>
  </Point>
</Placemark>
<Placemark>
  <name>VLG5GU - 14:27:21:843</name>
  <Point>
    <coordinates>2.07385522010298,41.2822241643291,0</coordinates>
  </Point>
</Placemark>
<Placemark>
  <name>KLJ7807 - 14:29:45:875</name>
  <Point>
    <coordinates>2.06711481294816,41.2786997620394,0</coordinates>
  </Point>
</Placemark>
<Placemark>
  <name>VLG344W - 14:31:09:851</name>
  <Point>
    <coordinates>2.07658205422071,41.2831356883538,0</coordinates>
  </Point>
</Placemark>
<Placemark>
  <name>NSZ5512 - 14:32:57:914</name>
  <Point>
    <coordinates>2.06567674603885,41.2794607503396,0</coordinates>
  </Point>
</Placemark>
<Placemark>
  <name>RYR46QT - 14:34:21:000</name>
  <Point>
    <coordinates>2.070999532038,41.2810458258904,0</coordinates>
  </Point>
</Placemark>
<Placemark>
  <name>QTR38P - 14:35:37:890</name>
  <Point>
    <coordinates>2.07218629117382,41.2814212974368,0</coordinates>
  </Point>
</Placemark>
<Placemark>
  <name>VLG87RX - 14:38:09:890</name>
  <Point>
    <coordinates>2.07625283319175,41.2829169829686,0</coordinates>
  </Point>
</Placemark>
<Placemark>
  <name>EJU93BF - 14:39:53:906</name>
  <Point>
    <coordinates>2.07336359524673,41.2820175066421,0</coordinates>
  </Point>
</Placemark>
<Placemark>
  <name>VLG8GG - 14:41:13:898</name>
  <Point>
    <coordinates>2.07589025769207,41.2826194973939,0</coordinates>
  </Point>
</Placemark>
<Placemark>
  <name>SVA228 - 14:42:45:921</name>
  <Point>
    <coordinates>2.07296660898382,41.2818418949244,0</coordinates>
  </Point>
</Placemark>
<Placemark>
  <name>VLG46YD - 14:49:09:953</name>
  <Point>
    <coordinates>2.07510579437997,41.2820940338532,0</coordinates>
  </Point>
</Placemark>
<Placemark>
  <name>VLG3NY - 14:50:33:937</name>
  <Point>
    <coordinates>2.0774837038283,41.2836099552139,0</coordinates>
  </Point>
</Placemark>
<Placemark>
  <name>WMT925 - 14:51:53:929</name>
  <Point>
    <coordinates>2.07868894288853,41.2837283429936,0</coordinates>
  </Point>
</Placemark>
<Placemark>
  <name>RYR6FX - 14:53:33:000</name>
  <Point>
    <coordinates>2.06971084648785,41.2810763378467,0</coordinates>
  </Point>
</Placemark>
<Placemark>
  <name>VLG6AW - 14:56:29:984</name>
  <Point>
    <coordinates>2.07300220312035,41.2817075027462,0</coordinates>
  </Point>
</Placemark>
<Placemark>
  <name>VLG3XE - 14:58:58:000</name>
  <Point>
    <coordinates>2.0732105422696,41.2819235442104,0</coordinates>
  </Point>
</Placemark>
<Placemark>
  <name>VLG43FJ - 15:04:10:023</name>
  <Point>
    <coordinates>2.07244626817004,41.281754793184,0</coordinates>
  </Point>
</Placemark>
<Placemark>
  <name>RYR1BE - 15:05:29:000</name>
  <Point>
    <coordinates>2.07607655220577,41.2829740191175,0</coordinates>
  </Point>
</Placemark>
<Placemark>
  <name>RYR281V - 15:06:54:062</name>
  <Point>
    <coordinates>2.06706477145187,41.279972128789,0</coordinates>
  </Point>
</Placemark>
<Placemark>
  <name>VLG1AL - 15:08:25:000</name>
  <Point>
    <coordinates>2.08102949609684,41.2846918187057,0</coordinates>
  </Point>
</Placemark>
<Placemark>
  <name>ANE14MZ - 15:10:01:976</name>
  <Point>
    <coordinates>2.08250286515737,41.2850888602544,0</coordinates>
  </Point>
</Placemark>
<Placemark>
  <name>ITY079 - 15:12:14:023</name>
  <Point>
    <coordinates>2.07859145790196,41.2838019814946,0</coordinates>
  </Point>
</Placemark>
<Placemark>
  <name>IBE30ME - 15:13:46:054</name>
  <Point>
    <coordinates>2.07458370926894,41.2821543034991,0</coordinates>
  </Point>
</Placemark>
<Placemark>
  <name>RYR7HV - 15:15:18:101</name>
  <Point>
    <coordinates>2.06459546271285,41.2787955855907,0</coordinates>
  </Point>
</Placemark>
<Placemark>
  <name>VLG53PP - 15:16:29:000</name>
  <Point>
    <coordinates>2.07463971649312,41.2827265145474,0</coordinates>
  </Point>
</Placemark>
<Placemark>
  <name>EZY53LY - 15:19:10:085</name>
  <Point>
    <coordinates>2.07158916163421,41.2811625584517,0</coordinates>
  </Point>
</Placemark>
<Placemark>
  <name>VLG9FT - 15:20:30:085</name>
  <Point>
    <coordinates>2.07497881578004,41.2826139055984,0</coordinates>
  </Point>
</Placemark>
<Placemark>
  <name>KLM88T - 15:22:02:132</name>
  <Point>
    <coordinates>2.06639380218367,41.2799704786101,0</coordinates>
  </Point>
</Placemark>
<Placemark>
  <name>VLG2QL - 15:26:21:000</name>
  <Point>
    <coordinates>2.08047757946119,41.2845526090506,0</coordinates>
  </Point>
</Placemark>
<Placemark>
  <name>BAW407B - 15:27:42:054</name>
  <Point>
    <coordinates>2.08220858325042,41.2850772109495,0</coordinates>
  </Point>
</Placemark>
<Placemark>
  <name>VLG7ZP - 15:30:22:132</name>
  <Point>
    <coordinates>2.07259052071574,41.2818528622503,0</coordinates>
  </Point>
</Placemark>
<Placemark>
  <name>DLH12N - 15:31:33:000</name>
  <Point>
    <coordinates>2.08182007335293,41.2850166286765,0</coordinates>
  </Point>
</Placemark>
<Placemark>
  <name>VLG96SC - 15:34:33:000</name>
  <Point>
    <coordinates>2.07737592275582,41.2835401625715,0</coordinates>
  </Point>
</Placemark>
<Placemark>
  <name>VLG228G - 15:35:45:000</name>
  <Point>
    <coordinates>2.07808090555204,41.28363164181,0</coordinates>
  </Point>
</Placemark>
<Placemark>
  <name>VLG5QR - 15:37:17:000</name>
  <Point>
    <coordinates>2.07296131013298,41.2817985616608,0</coordinates>
  </Point>
</Placemark>
<Placemark>
  <name>RYR3YH - 15:42:50:226</name>
  <Point>
    <coordinates>2.0653489995837,41.2790496653914,0</coordinates>
  </Point>
</Placemark>
<Placemark>
  <name>VLG898P - 15:48:41:000</name>
  <Point>
    <coordinates>2.08046302455783,41.2845633930115,0</coordinates>
  </Point>
</Placemark>
<Placemark>
  <name>RYR55BR - 15:50:42:218</name>
  <Point>
    <coordinates>2.06960753612316,41.2804071821039,0</coordinates>
  </Point>
</Placemark>
<Placemark>
  <name>VLG4QY - 15:57:18:234</name>
  <Point>
    <coordinates>2.07281792886666,41.281916859082,0</coordinates>
  </Point>
</Placemark>
<Placemark>
  <name>VLG8FZ - 16:02:25:000</name>
  <Point>
    <coordinates>2.07396408514954,41.2822118964769,0</coordinates>
  </Point>
</Placemark>
<Placemark>
  <name>RYR16HM - 16:05:50:265</name>
  <Point>
    <coordinates>2.07174602904642,41.2815044578097,0</coordinates>
  </Point>
</Placemark>
<Placemark>
  <name>VLG21CW - 16:11:10:265</name>
  <Point>
    <coordinates>2.07458662472489,41.2824365814826,0</coordinates>
  </Point>
</Placemark>
<Placemark>
  <name>VLG5BQ - 16:12:38:257</name>
  <Point>
    <coordinates>2.07656022648756,41.2830879866367,0</coordinates>
  </Point>
</Placemark>
<Placemark>
  <name>TAP1037 - 16:13:58:273</name>
  <Point>
    <coordinates>2.07579772595735,41.2829058043159,0</coordinates>
  </Point>
</Placemark>
<Placemark>
  <name>VLG7AQ - 16:15:34:296</name>
  <Point>
    <coordinates>2.07401436620609,41.282266278016,0</coordinates>
  </Point>
</Placemark>
<Placemark>
  <name>VLG8KH - 16:17:02:265</name>
  <Point>
    <coordinates>2.07741863207344,41.2832491256397,0</coordinates>
  </Point>
</Placemark>
<Placemark>
  <name>VLG3KP - 16:18:34:312</name>
  <Point>
    <coordinates>2.07108842401372,41.2811565307482,0</coordinates>
  </Point>
</Placemark>
<Placemark>
  <name>IBE30LC - 16:19:42:250</name>
  <Point>
    <coordinates>2.0813760282009,41.2847126865335,0</coordinates>
  </Point>
</Placemark>
<Placemark>
  <name>EJU17YE - 16:21:14:312</name>
  <Point>
    <coordinates>2.07174320590116,41.2815092457583,0</coordinates>
  </Point>
</Placemark>
<Placemark>
  <name>VLG29AE - 16:23:30:273</name>
  <Point>
    <coordinates>2.07954084763599,41.2841857349558,0</coordinates>
  </Point>
</Placemark>
<Placemark>
  <name>VLG505P - 16:26:18:289</name>
  <Point>
    <coordinates>2.07969194556571,41.2843414408827,0</coordinates>
  </Point>
</Placemark>
<Placemark>
  <name>VLG36CX - 16:29:01:000</name>
  <Point>
    <coordinates>2.07657185983575,41.2830523096827,0</coordinates>
  </Point>
</Placemark>
<Placemark>
  <name>VLG2WK - 16:37:21:000</name>
  <Point>
    <coordinates>2.07566136795116,41.2828530966879,0</coordinates>
  </Point>
</Placemark>
<Placemark>
  <name>VLG1RM - 16:40:14:351</name>
  <Point>
    <coordinates>2.07683056171321,41.2831017248558,0</coordinates>
  </Point>
</Placemark>
<Placemark>
  <name>DLH46A - 16:42:38:398</name>
  <Point>
    <coordinates>2.07308355254121,41.2817899178667,0</coordinates>
  </Point>
</Placemark>
<Placemark>
  <name>VLG9YE - 16:44:17:000</name>
  <Point>
    <coordinates>2.07598979868127,41.2830241995878,0</coordinates>
  </Point>
</Placemark>
<Placemark>
  <name>EJU63PM - 16:51:09:000</name>
  <Point>
    <coordinates>2.07497073616778,41.2826212840212,0</coordinates>
  </Point>
</Placemark>
<Placemark>
  <name>VLG7DE - 16:52:57:000</name>
  <Point>
    <coordinates>2.07405264427115,41.2822309292104,0</coordinates>
  </Point>
</Placemark>
<Placemark>
  <name>IBE30SP - 16:54:57:000</name>
  <Point>
    <coordinates>2.07982575955833,41.2839461611873,0</coordinates>
  </Point>
</Placemark>
<Placemark>
  <name>BAW481B - 16:56:22:351</name>
  <Point>
    <coordinates>2.08409905297222,41.2858430444998,0</coordinates>
  </Point>
</Placemark>
<Placemark>
  <name>VLG37PE - 16:59:38:429</name>
  <Point>
    <coordinates>2.07802517993476,41.2837773940552,0</coordinates>
  </Point>
</Placemark>
<Placemark>
  <name>AEA55TM - 17:01:30:476</name>
  <Point>
    <coordinates>2.06890482142342,41.2808239090578,0</coordinates>
  </Point>
</Placemark>
<Placemark>
  <name>EJU41YV - 17:03:14:445</name>
  <Point>
    <coordinates>2.07387471042626,41.2820375347133,0</coordinates>
  </Point>
</Placemark>
<Placemark>
  <name>AFR26AR - 17:04:38:453</name>
  <Point>
    <coordinates>2.0716367006334,41.2806337200681,0</coordinates>
  </Point>
</Placemark>
<Placemark>
  <name>VLG4RP - 17:05:42:429</name>
  <Point>
    <coordinates>2.0798688813147,41.2842598347665,0</coordinates>
  </Point>
</Placemark>
<Placemark>
  <name>RYR5PW - 17:07:06:476</name>
  <Point>
    <coordinates>2.07066799959014,41.2811114862128,0</coordinates>
  </Point>
</Placemark>
<Placemark>
  <name>DCAWN - 17:08:38:437</name>
  <Point>
    <coordinates>2.07214436580345,41.2791551441932,0</coordinates>
  </Point>
</Placemark>
<Placemark>
  <name>DLH65T - 17:10:33:000</name>
  <Point>
    <coordinates>2.07184707744696,41.2814742632722,0</coordinates>
  </Point>
</Placemark>
<Placemark>
  <name>VLG56QG - 17:12:05:000</name>
  <Point>
    <coordinates>2.07861248692756,41.2838718387649,0</coordinates>
  </Point>
</Placemark>
<Placemark>
  <name>IBE2627 - 17:13:34:507</name>
  <Point>
    <coordinates>2.06994942849823,41.2808760685816,0</coordinates>
  </Point>
</Placemark>
<Placemark>
  <name>AIZ272 - 17:18:26:000</name>
  <Point>
    <coordinates>2.07384420474755,41.2819162133406,0</coordinates>
  </Point>
</Placemark>
<Placemark>
  <name>VLG5AV - 17:19:29:000</name>
  <Point>
    <coordinates>2.07667599243507,41.2828758760713,0</coordinates>
  </Point>
</Placemark>
<Placemark>
  <name>N165SL - 17:21:54:500</name>
  <Point>
    <coordinates>2.07431031576592,41.2821387698703,0</coordinates>
  </Point>
</Placemark>
<Placemark>
  <name>VLG45HV - 17:23:42:492</name>
  <Point>
    <coordinates>2.07978088625455,41.2842806363668,0</coordinates>
  </Point>
</Placemark>
<Placemark>
  <name>THY6SM - 17:25:14:507</name>
  <Point>
    <coordinates>2.0756484459951,41.2826747686635,0</coordinates>
  </Point>
</Placemark>
<Placemark>
  <name>RYR3EW - 17:28:06:570</name>
  <Point>
    <coordinates>2.06282106478864,41.2779897015561,0</coordinates>
  </Point>
</Placemark>
<Placemark>
  <name>VLG1NJ - 17:29:38:539</name>
  <Point>
    <coordinates>2.07499413775329,41.2825581833527,0</coordinates>
  </Point>
</Placemark>
<Placemark>
  <name>RYR5BE - 17:33:10:562</name>
  <Point>
    <coordinates>2.0683311620793,41.2799945909331,0</coordinates>
  </Point>
</Placemark>
<Placemark>
  <name>VLG17UM - 17:34:14:531</name>
  <Point>
    <coordinates>2.07641307223021,41.2830123065225,0</coordinates>
  </Point>
</Placemark>
<Placemark>
  <name>VLG9GK - 17:35:50:000</name>
  <Point>
    <coordinates>2.07305397883803,41.2820262462909,0</coordinates>
  </Point>
</Placemark>
<Placemark>
  <name>VLG29DW - 17:38:54:570</name>
  <Point>
    <coordinates>2.07193945711966,41.2815302165609,0</coordinates>
  </Point>
</Placemark>
<Placemark>
  <name>VLG9TW - 17:40:34:546</name>
  <Point>
    <coordinates>2.07703584441075,41.2832408219425,0</coordinates>
  </Point>
</Placemark>
<Placemark>
  <name>IBE30WR - 17:51:02:000</name>
  <Point>
    <coordinates>2.07782420958775,41.2835347791691,0</coordinates>
  </Point>
</Placemark>
<Placemark>
  <name>RYR307W - 17:56:02:609</name>
  <Point>
    <coordinates>2.07340329449761,41.2819238831536,0</coordinates>
  </Point>
</Placemark>
<Placemark>
  <name>VLG76MR - 17:58:02:632</name>
  <Point>
    <coordinates>2.07056950189628,41.2809890236077,0</coordinates>
  </Point>
</Placemark>
<Placemark>
  <name>VLG89UQ - 17:59:18:640</name>
  <Point>
    <coordinates>2.07085427013754,41.2810000334191,0</coordinates>
  </Point>
</Placemark>
<Placemark>
  <name>VLG3728 - 18:00:58:585</name>
  <Point>
    <coordinates>2.0804277728758,41.2845116699555,0</coordinates>
  </Point>
</Placemark>
<Placemark>
  <name>RYR92TG - 18:09:14:000</name>
  <Point>
    <coordinates>2.06950859465382,41.2807550310786,0</coordinates>
  </Point>
</Placemark>
<Placemark>
  <name>VLG6FP - 18:13:58:687</name>
  <Point>
    <coordinates>2.07250189604049,41.2817567170606,0</coordinates>
  </Point>
</Placemark>
<Placemark>
  <name>SWR191N - 18:16:18:679</name>
  <Point>
    <coordinates>2.07291590960304,41.2816743941601,0</coordinates>
  </Point>
</Placemark>
<Placemark>
  <name>EWG76ZM - 18:17:54:648</name>
  <Point>
    <coordinates>2.08116758193829,41.2846361784207,0</coordinates>
  </Point>
</Placemark>
<Placemark>
  <name>ANE003 - 18:20:10:632</name>
  <Point>
    <coordinates>2.08180752084186,41.285010930416,0</coordinates>
  </Point>
</Placemark>
<Placemark>
  <name>VLG7SA - 18:22:46:695</name>
  <Point>
    <coordinates>2.07564793648409,41.2828143173758,0</coordinates>
  </Point>
</Placemark>
<Placemark>
  <name>VLG1517 - 18:24:30:734</name>
  <Point>
    <coordinates>2.07015759015655,41.2807001590971,0</coordinates>
  </Point>
</Placemark>
<Placemark>
  <name>VLG7364 - 18:33:50:734</name>
  <Point>
    <coordinates>2.07448495570899,41.2824770968443,0</coordinates>
  </Point>
</Placemark>
<Placemark>
  <name>VLG2JU - 18:35:14:726</name>
  <Point>
    <coordinates>2.07520244276739,41.2823033764075,0</coordinates>
  </Point>
</Placemark>
<Placemark>
  <name>RAM961U - 18:38:58:765</name>
  <Point>
    <coordinates>2.06860795169332,41.2802173439657,0</coordinates>
  </Point>
</Placemark>
<Placemark>
  <name>AUA34R - 18:40:18:000</name>
  <Point>
    <coordinates>2.07546986103153,41.2825913096611,0</coordinates>
  </Point>
</Placemark>
<Placemark>
  <name>AEA7708 - 18:41:42:742</name>
  <Point>
    <coordinates>2.0760311158272,41.2827193214055,0</coordinates>
  </Point>
</Placemark>
<Placemark>
  <name>EWG9SJ - 18:44:30:000</name>
  <Point>
    <coordinates>2.07542987874406,41.2825500724908,0</coordinates>
  </Point>
</Placemark>
<Placemark>
  <name>SAS51B - 18:45:38:000</name>
  <Point>
    <coordinates>2.0802432281019,41.2843709051537,0</coordinates>
  </Point>
</Placemark>
<Placemark>
  <name>VLG5XA - 18:47:02:765</name>
  <Point>
    <coordinates>2.07624139638458,41.2830163209235,0</coordinates>
  </Point>
</Placemark>
<Placemark>
  <name>BCS8029 - 18:48:26:000</name>
  <Point>
    <coordinates>2.07130538838882,41.2813566960994,0</coordinates>
  </Point>
</Placemark>
<Placemark>
  <name>VLG37QW - 18:49:38:781</name>
  <Point>
    <coordinates>2.07521198633684,41.2826093655103,0</coordinates>
  </Point>
</Placemark>
<Placemark>
  <name>VLG1CL - 18:50:50:789</name>
  <Point>
    <coordinates>2.07369830570145,41.2821841415096,0</coordinates>
  </Point>
</Placemark>
<Placemark>
  <name>RYR59DM - 18:52:02:757</name>
  <Point>
    <coordinates>2.07953659354669,41.2841647443305,0</coordinates>
  </Point>
</Placemark>
<Placemark>
  <name>EZY31ZM - 18:53:22:000</name>
  <Point>
    <coordinates>2.08185000333724,41.2849946966813,0</coordinates>
  </Point>
</Placemark>
<Placemark>
  <name>VLG7LH - 18:54:46:781</name>
  <Point>
    <coordinates>2.07780106542595,41.2835559538801,0</coordinates>
  </Point>
</Placemark>
<Placemark>
  <name>VLG3518 - 18:56:30:828</name>
  <Point>
    <coordinates>2.07069132282381,41.2811120899599,0</coordinates>
  </Point>
</Placemark>
<Placemark>
  <name>UAE188 - 18:57:42:820</name>
  <Point>
    <coordinates>2.07282726469683,41.281748071809,0</coordinates>
  </Point>
</Placemark>
<Placemark>
  <name>VLG3EB - 19:00:14:000</name>
  <Point>
    <coordinates>2.07020271921488,41.2811538456246,0</coordinates>
  </Point>
</Placemark>
<Placemark>
  <name>WZZ012 - 19:01:34:812</name>
  <Point>
    <coordinates>2.07816119373432,41.2838379558555,0</coordinates>
  </Point>
</Placemark>
<Placemark>
  <name>RYR3185 - 19:03:02:843</name>
  <Point>
    <coordinates>2.07213565991684,41.2815172915514,0</coordinates>
  </Point>
</Placemark>
<Placemark>
  <name>VLG3QJ - 19:04:30:843</name>
  <Point>
    <coordinates>2.07263017425073,41.2811772089913,0</coordinates>
  </Point>
</Placemark>
<Placemark>
  <name>VLG8AY - 19:05:50:851</name>
  <Point>
    <coordinates>2.0735614111716,41.2820447031992,0</coordinates>
  </Point>
</Placemark>
<Placemark>
  <name>RYR1LV - 19:07:38:867</name>
  <Point>
    <coordinates>2.07031192694657,41.280660446938,0</coordinates>
  </Point>
</Placemark>
<Placemark>
  <name>VLG688V - 19:08:54:882</name>
  <Point>
    <coordinates>2.07044117506492,41.2809641457028,0</coordinates>
  </Point>
</Placemark>
<Placemark>
  <name>VLG3PQ - 19:10:42:890</name>
  <Point>
    <coordinates>2.06909065550275,41.2804046791824,0</coordinates>
  </Point>
</Placemark>
<Placemark>
  <name>RYR16LD - 19:11:54:859</name>
  <Point>
    <coordinates>2.07524065932353,41.2824104274545,0</coordinates>
  </Point>
</Placemark>
<Placemark>
  <name>EJU74GF - 19:15:54:921</name>
  <Point>
    <coordinates>2.0679191904011,41.2800779578254,0</coordinates>
  </Point>
</Placemark>
<Placemark>
  <name>RYR48RQ - 19:17:34:914</name>
  <Point>
    <coordinates>2.07137984021919,41.2812552589002,0</coordinates>
  </Point>
</Placemark>
<Placemark>
  <name>VLG6DT - 19:19:34:851</name>
  <Point>
    <coordinates>2.08148717151332,41.2846771814044,0</coordinates>
  </Point>
</Placemark>
<Placemark>
  <name>IBE3041 - 19:21:26:929</name>
  <Point>
    <coordinates>2.07113524629481,41.2808986222486,0</coordinates>
  </Point>
</Placemark>
<Placemark>
  <name>AFR68FK - 19:24:22:000</name>
  <Point>
    <coordinates>2.07510088185559,41.2825055547511,0</coordinates>
  </Point>
</Placemark>
<Placemark>
  <name>BAW487 - 19:29:22:914</name>
  <Point>
    <coordinates>2.08031635602751,41.2844751007833,0</coordinates>
  </Point>
</Placemark>
<Placemark>
  <name>TAP45LV - 19:30:54:000</name>
  <Point>
    <coordinates>2.08086296808986,41.2845464038492,0</coordinates>
  </Point>
</Placemark>
<Placemark>
  <name>BEL7JN - 19:32:54:000</name>
  <Point>
    <coordinates>2.08009615040251,41.2842891093555,0</coordinates>
  </Point>
</Placemark>
<Placemark>
  <name>VLG5NZ - 19:38:06:937</name>
  <Point>
    <coordinates>2.08134696610207,41.2847856843024,0</coordinates>
  </Point>
</Placemark>
<Placemark>
  <name>RYR7509 - 19:40:15:046</name>
  <Point>
    <coordinates>2.06426068897971,41.2784705663238,0</coordinates>
  </Point>
</Placemark>
<Placemark>
  <name>RYR56MP - 19:51:18:000</name>
  <Point>
    <coordinates>2.06999719717004,41.280810902077,0</coordinates>
  </Point>
</Placemark>
<Placemark>
  <name>VLG9ZA - 19:53:03:078</name>
  <Point>
    <coordinates>2.07221806491815,41.2815729219239,0</coordinates>
  </Point>
</Placemark>
<Placemark>
  <name>VLG3CP - 20:00:19:132</name>
  <Point>
    <coordinates>2.07254654181878,41.281623340993,0</coordinates>
  </Point>
</Placemark>
<Placemark>
  <name>WMT424 - 20:02:23:085</name>
  <Point>
    <coordinates>2.07869859731507,41.2839769753362,0</coordinates>
  </Point>
</Placemark>
<Placemark>
  <name>RYR33JW - 20:05:47:148</name>
  <Point>
    <coordinates>2.07111952333509,41.2811816488631,0</coordinates>
  </Point>
</Placemark>
<Placemark>
  <name>VLG4LJ - 20:07:19:156</name>
  <Point>
    <coordinates>2.07159821558002,41.2812807439858,0</coordinates>
  </Point>
</Placemark>
<Placemark>
  <name>BCS8031 - 20:08:31:117</name>
  <Point>
    <coordinates>2.07950638960615,41.284036944244,0</coordinates>
  </Point>
</Placemark>
<Placemark>
  <name>AEA70JK - 20:11:19:171</name>
  <Point>
    <coordinates>2.07345627390994,41.2822041697093,0</coordinates>
  </Point>
</Placemark>
<Placemark>
  <name>RYR7B - 20:34:34:000</name>
  <Point>
    <coordinates>2.07533023063366,41.2826952224348,0</coordinates>
  </Point>
</Placemark>
<Placemark>
  <name>VLG5UY - 20:20:15:203</name>
  <Point>
    <coordinates>2.07698261275301,41.2833581561719,0</coordinates>
  </Point>
</Placemark>
<Placemark>
  <name>EZY64WK - 20:21:38:000</name>
  <Point>
    <coordinates>2.07764411192644,41.2834867298254,0</coordinates>
  </Point>
</Placemark>
<Placemark>
  <name>DAH2015 - 20:26:15:265</name>
  <Point>
    <coordinates>2.07187976505264,41.2816793300572,0</coordinates>
  </Point>
</Placemark>
<Placemark>
  <name>BCS8049 - 20:30:59:242</name>
  <Point>
    <coordinates>2.07945280270483,41.2839348266446,0</coordinates>
  </Point>
</Placemark>
<Placemark>
  <name>VLG8JY - 20:33:30:000</name>
  <Point>
    <coordinates>2.06749634778569,41.2798470125515,0</coordinates>
  </Point>
</Placemark>
<Placemark>
  <name>VLG7ZR - 20:35:50:000</name>
  <Point>
    <coordinates>2.07359687517864,41.2822367583277,0</coordinates>
  </Point>
</Placemark>
<Placemark>
  <name>RYR4UN - 20:37:59:351</name>
  <Point>
    <coordinates>2.06797187674572,41.2796098391734,0</coordinates>
  </Point>
</Placemark>
<Placemark>
  <name>ELY392 - 20:39:46:000</name>
  <Point>
    <coordinates>2.07768046141015,41.2835519776189,0</coordinates>
  </Point>
</Placemark>
<Placemark>
  <name>WMT9VD - 20:43:15:328</name>
  <Point>
    <coordinates>2.0787471484593,41.2838151975581,0</coordinates>
  </Point>
</Placemark>
<Placemark>
  <name>VLG41YG - 20:44:27:359</name>
  <Point>
    <coordinates>2.07649845151469,41.2831338997309,0</coordinates>
  </Point>
</Placemark>
<Placemark>
  <name>TAP1043 - 20:46:30:000</name>
  <Point>
    <coordinates>2.07584450038141,41.2825658314228,0</coordinates>
  </Point>
</Placemark>
<Placemark>
  <name>BCS463 - 20:47:43:375</name>
  <Point>
    <coordinates>2.07650368198123,41.2829779796983,0</coordinates>
  </Point>
</Placemark>
<Placemark>
  <name>UPS243 - 20:50:23:375</name>
  <Point>
    <coordinates>2.07904958603694,41.2837816579525,0</coordinates>
  </Point>
</Placemark>
<Placemark>
  <name>WMT5SY - 20:53:27:382</name>
  <Point>
    <coordinates>2.08107774347771,41.28484903707,0</coordinates>
  </Point>
</Placemark>
<Placemark>
  <name>EJU67YR - 21:04:03:476</name>
  <Point>
    <coordinates>2.07691462847769,41.283013260608,0</coordinates>
  </Point>
</Placemark>
<Placemark>
  <name>RYR46FX - 21:07:23:000</name>
  <Point>
    <coordinates>2.07299476184883,41.2816586105853,0</coordinates>
  </Point>
</Placemark>
<Placemark>
  <name>VLG7844 - 21:12:51:523</name>
  <Point>
    <coordinates>2.07935034507783,41.2840062078559,0</coordinates>
  </Point>
</Placemark>
<Placemark>
  <name>FDX6372 - 21:14:15:554</name>
  <Point>
    <coordinates>2.07491127192584,41.2819969456139,0</coordinates>
  </Point>
</Placemark>
<Placemark>
  <name>SWN6LC - 21:21:19:656</name>
  <Point>
    <coordinates>2.07169018486619,41.2819342141979,0</coordinates>
  </Point>
</Placemark>
<Placemark>
  <name>EIN56V - 21:24:07:000</name>
  <Point>
    <coordinates>2.07150799988223,41.2813903692322,0</coordinates>
  </Point>
</Placemark>
<Placemark>
  <name>HAT6129 - 21:35:07:757</name>
  <Point>
    <coordinates>2.06703680554774,41.2796916384884,0</coordinates>
  </Point>
</Placemark>
<Placemark>
  <name>VLG606P - 21:38:23:687</name>
  <Point>
    <coordinates>2.08292070326749,41.2852877865624,0</coordinates>
  </Point>
</Placemark>
<Placemark>
  <name>RYR7WN - 21:42:35:750</name>
  <Point>
    <coordinates>2.07985784130862,41.2842191785273,0</coordinates>
  </Point>
</Placemark>
<Placemark>
  <name>WZZ8QQ - 21:55:51:000</name>
  <Point>
    <coordinates>2.07888445935026,41.2841086242883,0</coordinates>
  </Point>
</Placemark>
</Document>
</kml>
