<?xml version="1.0" encoding="UTF-8"?>
<kml xmlns="http://www.opengis.net/kml/2.2">
<Document>
<Placemark>
  <name>VLG3CP - 20:00:19:132</name>
  <Point>
    <coordinates>2.07254654181878,41.281623340993,0</coordinates>
  </Point>
</Placemark>
<Placemark>
  <name>WMT424 - 20:02:23:085</name>
  <Point>
    <coordinates>2.07869859731507,41.2839769753362,0</coordinates>
  </Point>
</Placemark>
<Placemark>
  <name>RYR33JW - 20:05:47:148</name>
  <Point>
    <coordinates>2.07111952333509,41.2811816488631,0</coordinates>
  </Point>
</Placemark>
<Placemark>
  <name>VLG4LJ - 20:07:19:156</name>
  <Point>
    <coordinates>2.07159821558002,41.2812807439858,0</coordinates>
  </Point>
</Placemark>
<Placemark>
  <name>BCS8031 - 20:08:31:117</name>
  <Point>
    <coordinates>2.07950638960615,41.284036944244,0</coordinates>
  </Point>
</Placemark>
<Placemark>
  <name>AEA70JK - 20:11:19:171</name>
  <Point>
    <coordinates>2.07345627390994,41.2822041697093,0</coordinates>
  </Point>
</Placemark>
<Placemark>
  <name>RYR7B - 20:34:34:000</name>
  <Point>
    <coordinates>2.07533023063366,41.2826952224348,0</coordinates>
  </Point>
</Placemark>
<Placemark>
  <name>VLG5UY - 20:20:15:203</name>
  <Point>
    <coordinates>2.07698261275301,41.2833581561719,0</coordinates>
  </Point>
</Placemark>
<Placemark>
  <name>EZY64WK - 20:21:38:000</name>
  <Point>
    <coordinates>2.07764411192644,41.2834867298254,0</coordinates>
  </Point>
</Placemark>
<Placemark>
  <name>DAH2015 - 20:26:15:265</name>
  <Point>
    <coordinates>2.07187976505264,41.2816793300572,0</coordinates>
  </Point>
</Placemark>
<Placemark>
  <name>BCS8049 - 20:30:59:242</name>
  <Point>
    <coordinates>2.07945280270483,41.2839348266446,0</coordinates>
  </Point>
</Placemark>
<Placemark>
  <name>VLG8JY - 20:33:30:000</name>
  <Point>
    <coordinates>2.06749634778569,41.2798470125515,0</coordinates>
  </Point>
</Placemark>
<Placemark>
  <name>VLG7ZR - 20:35:50:000</name>
  <Point>
    <coordinates>2.07359687517864,41.2822367583277,0</coordinates>
  </Point>
</Placemark>
<Placemark>
  <name>RYR4UN - 20:37:59:351</name>
  <Point>
    <coordinates>2.06797187674572,41.2796098391734,0</coordinates>
  </Point>
</Placemark>
<Placemark>
  <name>ELY392 - 20:39:46:000</name>
  <Point>
    <coordinates>2.07768046141015,41.2835519776189,0</coordinates>
  </Point>
</Placemark>
<Placemark>
  <name>WMT9VD - 20:43:15:328</name>
  <Point>
    <coordinates>2.0787471484593,41.2838151975581,0</coordinates>
  </Point>
</Placemark>
<Placemark>
  <name>VLG41YG - 20:44:27:359</name>
  <Point>
    <coordinates>2.07649845151469,41.2831338997309,0</coordinates>
  </Point>
</Placemark>
<Placemark>
  <name>TAP1043 - 20:46:30:000</name>
  <Point>
    <coordinates>2.07584450038141,41.2825658314228,0</coordinates>
  </Point>
</Placemark>
<Placemark>
  <name>BCS463 - 20:47:43:375</name>
  <Point>
    <coordinates>2.07650368198123,41.2829779796983,0</coordinates>
  </Point>
</Placemark>
<Placemark>
  <name>UPS243 - 20:50:23:375</name>
  <Point>
    <coordinates>2.07904958603694,41.2837816579525,0</coordinates>
  </Point>
</Placemark>
<Placemark>
  <name>WMT5SY - 20:53:27:382</name>
  <Point>
    <coordinates>2.08107774347771,41.28484903707,0</coordinates>
  </Point>
</Placemark>
<Placemark>
  <name>EJU67YR - 21:04:03:476</name>
  <Point>
    <coordinates>2.07691462847769,41.283013260608,0</coordinates>
  </Point>
</Placemark>
<Placemark>
  <name>RYR46FX - 21:07:23:000</name>
  <Point>
    <coordinates>2.07299476184883,41.2816586105853,0</coordinates>
  </Point>
</Placemark>
<Placemark>
  <name>VLG7844 - 21:12:51:523</name>
  <Point>
    <coordinates>2.07935034507783,41.2840062078559,0</coordinates>
  </Point>
</Placemark>
<Placemark>
  <name>FDX6372 - 21:14:15:554</name>
  <Point>
    <coordinates>2.07491127192584,41.2819969456139,0</coordinates>
  </Point>
</Placemark>
<Placemark>
  <name>SWN6LC - 21:21:19:656</name>
  <Point>
    <coordinates>2.07169018486619,41.2819342141979,0</coordinates>
  </Point>
</Placemark>
<Placemark>
  <name>EIN56V - 21:24:07:000</name>
  <Point>
    <coordinates>2.07150799988223,41.2813903692322,0</coordinates>
  </Point>
</Placemark>
<Placemark>
  <name>HAT6129 - 21:35:07:757</name>
  <Point>
    <coordinates>2.06703680554774,41.2796916384884,0</coordinates>
  </Point>
</Placemark>
<Placemark>
  <name>VLG606P - 21:38:23:687</name>
  <Point>
    <coordinates>2.08292070326749,41.2852877865624,0</coordinates>
  </Point>
</Placemark>
<Placemark>
  <name>RYR7WN - 21:42:35:750</name>
  <Point>
    <coordinates>2.07985784130862,41.2842191785273,0</coordinates>
  </Point>
</Placemark>
<Placemark>
  <name>WZZ8QQ - 21:55:51:000</name>
  <Point>
    <coordinates>2.07888445935026,41.2841086242883,0</coordinates>
  </Point>
</Placemark>
</Document>
</kml>
